[
    {
        "id": 1,
        "name": "EineWeltHaus",
        "latitude": 48.1379275,
        "longitude": 11.552935,
        "address": "Schwanthalerstraße 80, 80336 München-Ludwigsvorstadt-Isarvorstadt",
        "image": "/marker1.png",
        "zeiten": "Mo-Fr 8-18 Uhr, Sa 8-12 Uhr, So 10-12 Uhr",
        "betreibende": "Lorem Ipsum",
        "kommerziell": "Lorem Ipsum",
        "grösse": "Lorem Impsum",
        "gestaltung": "Lorem Ipsum"
      },
      {
        "id": 2,
        "name": "Bellevue di Monaco",
        "latitude": 48.1331521,
        "longitude": 11.5717403,
        "address": "Müllerstraße 2-6, 80469 München-Altstadt-Lehel",
        "image": "/marker2.png",
        "zeiten": "Mo-Fr 8-18 Uhr, Sa 8-12 Uhr, So 10-12 Uhr",
        "betreibende": "Lorem Ipsum",
        "kommerziell": "Lorem Ipsum",
        "grösse": "Lorem Impsum",
        "gestaltung": "Lorem Ipsum"
      },
      {
        "id": 3,
        "name": "Bürgerhaus Glockenbachwerkstatt",
        "latitude": 48.133565,
        "longitude": 11.5714804,
        "address": "Blumenstraße 7, 80469 München-Altstadt-Lehel",
        "image": "/marker2.png",
        "zeiten": "Mo-Fr 8-18 Uhr, Sa 8-12 Uhr, So 10-12 Uhr",
        "betreibende": "Lorem Ipsum",
        "kommerziell": "Lorem Ipsum",
        "grösse": "Lorem Impsum",
        "gestaltung": "Lorem Ipsum"
      },
      {
        "id": 4,
        "name": "Fat Cat",
        "latitude": 48.1308242,
        "longitude": 11.5890126,
        "address": "Kellerstraße 8a, 81667 München",
        "image": "/marker2.png",
        "zeiten": "Mo-Fr 8-18 Uhr, Sa 8-12 Uhr, So 10-12 Uhr",
        "betreibende": "Lorem Ipsum",
        "kommerziell": "Lorem Ipsum",
        "grösse": "Lorem Impsum",
        "gestaltung": "Lorem Ipsum"
      },
      {
        "id": 5,
        "name": "Kulturzentrum Giesinger Bahnhof",
        "latitude": 48.1103155,
        "longitude": 11.5935529,
        "address": "Giesinger Bahnhofpl. 1, 81539 München",
        "image": "/marker2.png",
        "zeiten": "Mo-Fr 8-18 Uhr, Sa 8-12 Uhr, So 10-12 Uhr",
        "betreibende": "Lorem Ipsum",
        "kommerziell": "Lorem Ipsum",
        "grösse": "Lorem Impsum",
        "gestaltung": "Lorem Ipsum"
      },
      {
        "id": 6,
        "name": "Die Färberei",
        "latitude": 48.1193439,
        "longitude": 11.5673023,
        "address": "Claude-Lorrain-Straße 25, 81543 München-Untergiesing-Harlaching",
        "image": "/marker2.png",
        "zeiten": "Mo-Fr 8-18 Uhr, Sa 8-12 Uhr, So 10-12 Uhr",
        "betreibende": "Lorem Ipsum",
        "kommerziell": "Lorem Ipsum",
        "grösse": "Lorem Impsum",
        "gestaltung": "Lorem Ipsum"
      },
      {
        "id": 7,
        "name": "AJZ Ebersberg e.V.",
        "latitude": 48.0748736,
        "longitude": 11.9643651,
        "address": "Doktor-Wintrich-Straße 1, 85560 Ebersberg",
        "image": "/marker2.png",
        "zeiten": "Mo-Fr 8-18 Uhr, Sa 8-12 Uhr, So 10-12 Uhr",
        "betreibende": "Lorem Ipsum",
        "kommerziell": "Lorem Ipsum",
        "grösse": "Lorem Impsum",
        "gestaltung": "Lorem Ipsum"
      },
      {
        "id": 8,
        "name": "Jugendinitiative Grafing e.V.",
        "latitude": 48.0458834,
        "longitude": 11.9663781,
        "address": "Rotter Str. 8, 85567 Grafing bei München",
        "image": "/marker2.png",
        "zeiten": "Mo-Fr 8-18 Uhr, Sa 8-12 Uhr, So 10-12 Uhr",
        "betreibende": "Lorem Ipsum",
        "kommerziell": "Lorem Ipsum",
        "grösse": "Lorem Impsum",
        "gestaltung": "Lorem Ipsum"
      },
      {
        "id": 9,
        "name": "Freiraum Dachau",
        "latitude": 48.2560122,
        "longitude": 11.4296453,
        "address": "Brunngartenstraße 7, 85221 Dachau",
        "image": "/marker2.png",
        "zeiten": "Mo-Fr 8-18 Uhr, Sa 8-12 Uhr, So 10-12 Uhr",
        "betreibende": "Lorem Ipsum",
        "kommerziell": "Lorem Ipsum",
        "grösse": "Lorem Impsum",
        "gestaltung": "Lorem Ipsum"
      },
      {
        "id": 10,
        "name": "diversity Café",
        "latitude": 48.1316536,
        "longitude": 11.5680851,
        "address": "Blumenstraße 29, 80331 München-Altstadt-Lehel",
        "image": "/marker2.png",
        "zeiten": "Mo-Fr 8-18 Uhr, Sa 8-12 Uhr, So 10-12 Uhr",
        "betreibende": "Lorem Ipsum",
        "kommerziell": "Lorem Ipsum",
        "grösse": "Lorem Impsum",
        "gestaltung": "Lorem Ipsum"
      },   
      {
        "id": 11,
        "name": "PATHOS theater",
        "latitude": 48.1585135,
        "longitude": 11.5482351,
        "address": "Dachauer Str. 110D, 80636 München",
        "image": "/marker2.png",
        "zeiten": "Mo-Fr 8-18 Uhr, Sa 8-12 Uhr, So 10-12 Uhr",
        "betreibende": "Lorem Ipsum",
        "kommerziell": "Lorem Ipsum",
        "grösse": "Lorem Impsum",
        "gestaltung": "Lorem Ipsum"
      },   
      {
        "id": 12,
        "name": "Kafe Kult",
        "latitude": 48.1649778,
        "longitude": 11.6202434,
        "address": "Oberföhringer Str. 156, 81925 München-Bogenhausen",
        "image": "/marker2.png",
        "zeiten": "Mo-Fr 8-18 Uhr, Sa 8-12 Uhr, So 10-12 Uhr",
        "betreibende": "Lorem Ipsum",
        "kommerziell": "Lorem Ipsum",
        "grösse": "Lorem Impsum",
        "gestaltung": "Lorem Ipsum"
      },  
      {
        "id": 13,
        "name": "Import Export",
        "latitude": 48.159433,
        "longitude": 11.5474343,
        "address": "Schwere-Reiter-Str. 2h, 80636 München-Neuhausen-Nymphenburg",
        "image": "/marker2.png",
        "zeiten": "Mo-Fr 8-18 Uhr, Sa 8-12 Uhr, So 10-12 Uhr",
        "betreibende": "Lorem Ipsum",
        "kommerziell": "Lorem Ipsum",
        "grösse": "Lorem Impsum",
        "gestaltung": "Lorem Ipsum"
      },   
      {
        "id": 14,
        "name": "Feierwerk",
        "latitude": 48.1288901,
        "longitude": 11.4684438,
        "address": "Hansastraße 39-41, 81373 München-Sendling-Westpark",
        "image": "/marker2.png",
        "zeiten": "Mo-Fr 8-18 Uhr, Sa 8-12 Uhr, So 10-12 Uhr",
        "betreibende": "Lorem Ipsum",
        "kommerziell": "Lorem Ipsum",
        "grösse": "Lorem Impsum",
        "gestaltung": "Lorem Ipsum"
      },   
      {
        "id": 15,
        "name": "Kafe Marat",
        "latitude": 48.1239145,
        "longitude": 11.5578452,
        "address": "Thalkirchner Str. 102, 80337 München",
        "image": "/marker2.png",
        "zeiten": "Mo-Fr 8-18 Uhr, Sa 8-12 Uhr, So 10-12 Uhr",
        "betreibende": "Lorem Ipsum",
        "kommerziell": "Lorem Ipsum",
        "grösse": "Lorem Impsum",
        "gestaltung": "Lorem Ipsum"
      },   
      {
        "id": 16,
        "name": "Barrio Olga Benario",
        "latitude": 48.1158288,
        "longitude": 11.5930892,
        "address": "Schlierseestraße 21, 81541 München-Obergiesing-Fasangarten",
        "image": "/marker2.png",
        "zeiten": "Mo-Fr 8-18 Uhr, Sa 8-12 Uhr, So 10-12 Uhr",
        "betreibende": "Lorem Ipsum",
        "kommerziell": "Lorem Ipsum",
        "grösse": "Lorem Impsum",
        "gestaltung": "Lorem Ipsum"
      },   
      {
        "id": 17,
        "name": "Haus der Jugendarbeit",
        "latitude": 48.1488046,
        "longitude": 11.5365521,
        "address": "Rupprechtstraße 29, 80636 München-Neuhausen-Nymphenburgu",
        "image": "/marker2.png",
        "zeiten": "Mo-Fr 8-18 Uhr, Sa 8-12 Uhr, So 10-12 Uhr",
        "betreibende": "Lorem Ipsum",
        "kommerziell": "Lorem Ipsum",
        "grösse": "Lorem Impsum",
        "gestaltung": "Lorem Ipsum"
      },
      {
        "id": 18,
        "name": "Stattpark Olga",
        "latitude": 48.1153453,
        "longitude": 11.6403883,
        "address": "Heinrich-Wieland-Straße 90, 81735 München",
        "image": "/marker2.png",
        "zeiten": "Mo-Fr 8-18 Uhr, Sa 8-12 Uhr, So 10-12 Uhr",
        "betreibende": "Lorem Ipsum",
        "kommerziell": "Lorem Ipsum",
        "grösse": "Lorem Impsum",
        "gestaltung": "Lorem Ipsum"
      },
      {
        "id": 19,
        "name": "Baldeplatz",
        "latitude": 48.1231899,
        "longitude": 11.5672183,
        "address": "Baldeplatz, 81669 München",
        "image": "/marker2.png",
        "zeiten": "immer",
        "betreibende": "Lorem Ipsum",
        "kommerziell": "Lorem Ipsum",
        "grösse": "Lorem Impsum",
        "gestaltung": "Lorem Ipsum"
      },
      {
        "id": 20,
        "name": "Englischer Garten",
        "latitude": 48.1642358,
        "longitude": 11.6029773,
        "address": "Lorem Ipsum",
        "image": "/marker2.png",
        "zeiten": "immer",
        "betreibende": "Lorem Ipsum",
        "kommerziell": "Lorem Ipsum",
        "grösse": "Lorem Impsum",
        "gestaltung": "Lorem Ipsum"
      },
      {
        "id": 21,
        "name": "Flaucher",
        "latitude": 48.107207,
        "longitude": 11.5521114,
        "address": "Lorem Ipsum",
        "image": "/marker2.png",
        "zeiten": "immer",
        "betreibende": "Lorem Ipsum",
        "kommerziell": "Lorem Ipsum",
        "grösse": "Lorem Impsum",
        "gestaltung": "Lorem Ipsum"
      },
      {
        "id": 22,
        "name": "Grünspitz",
        "latitude": 48.1135126,
        "longitude": 11.5744694,
        "address": "Tegernseer Landstraße 104, 81359 München-Obergiesing-Fasangarten",
        "image": "/marker2.png",
        "zeiten": "Mo-Fr 8-18 Uhr, Sa 8-12 Uhr, So 10-12 Uhr",
        "betreibende": "Lorem Ipsum",
        "kommerziell": "Lorem Ipsum",
        "grösse": "Lorem Impsum",
        "gestaltung": "Lorem Ipsum"
      },
      {
        "id": 23,
        "name": "Autobahnbrücke1",
        "latitude": 48.1543291,
        "longitude": 11.6011674,
        "address": "Lorem Ipsum",
        "image": "/marker2.png",
        "zeiten": "Lorem Ipsum",
        "betreibende": "Lorem Ipsum",
        "kommerziell": "Lorem Ipsum",
        "grösse": "Lorem Impsum",
        "gestaltung": "Lorem Ipsum"
      },
      {
        "id": 24,
        "name": "Autobahnbrücke2",
        "latitude": 48.1543291,
        "longitude": 11.6011674,
        "address": "Lorem Ipsum",
        "image": "/marker2.png",
        "zeiten": "Lorem Ipsum",
        "betreibende": "Lorem Ipsum",
        "kommerziell": "Lorem Ipsum",
        "grösse": "Lorem Impsum",
        "gestaltung": "Lorem Ipsum"
      },
      {
        "id": 25,
        "name": "Autobahnbrücke3",
        "latitude": 48.1543291,
        "longitude": 11.6011674,
        "address": "Lorem Ipsum",
        "image": "/marker2.png",
        "zeiten": "Lorem Ipsum",
        "betreibende": "Lorem Ipsum",
        "kommerziell": "Lorem Ipsum",
        "grösse": "Lorem Impsum",
        "gestaltung": "Lorem Ipsum"
      },
      {
        "id": 26,
        "name": "Schiller38",
        "latitude": 48.135706,
        "longitude": 11.5577289,
        "address": "Schillerstraße 38, 80336 München-Ludwigsvorstadt-Isarvorstadt",
        "image": "/marker2.png",
        "zeiten": "Mo-Fr 8-18 Uhr, Sa 8-12 Uhr, So 10-12 Uhr",
        "betreibende": "Lorem Ipsum",
        "kommerziell": "Lorem Ipsum",
        "grösse": "Lorem Impsum",
        "gestaltung": "Lorem Ipsum"
      },
      {
        "id": 27,
        "name": "Siemenswerke",
        "latitude": 48.0920368,
        "longitude": 11.5256791,
        "address": "Lorem Ipsum",
        "image": "/marker2.png",
        "zeiten": "Lorem Ipsum",
        "betreibende": "Lorem Ipsum",
        "kommerziell": "Lorem Ipsum",
        "grösse": "Lorem Impsum",
        "gestaltung": "Lorem Ipsum"
      },
      {
        "id": 28,
        "name": "Branntweinareal",
        "latitude": 48.133502,
        "longitude": 11.6160915,
        "address": "Neumarkter Str. 5, 81673 München-Berg am Laim",
        "image": "/marker2.png",
        "zeiten": "Lorem Ipsum",
        "betreibende": "Lorem Ipsum",
        "kommerziell": "Lorem Ipsum",
        "grösse": "Lorem Impsum",
        "gestaltung": "Lorem Ipsum"
      },
      {
        "id": 29,
        "name": "Signal e.V.",
        "latitude": 48.111727,
        "longitude": 11.5539352,
        "address": "Hans-Preißinger-Straße 2, 81379 München",
        "image": "/marker2.png",
        "zeiten": "Lorem Ipsum",
        "betreibende": "Lorem Ipsum",
        "kommerziell": "Lorem Ipsum",
        "grösse": "Lorem Impsum",
        "gestaltung": "Lorem Ipsum"
      }

  ]
  